,City,Cloudiness,Country,Date,Humidity,Lat,Lng,Max Temp,Wind Speed
0,ulaanbaatar,0,MN,1578366000,80,47.92,106.92,3.07,0.4
1,busselton,0,AU,1578366000,46,-33.64,115.35,76.95,8.99
2,sungaipenuh,42,ID,1578366000,66,-2.08,101.38,74.32,3.74
3,bredasdorp,85,ZA,1578366000,81,-34.53,20.04,63.25,8.57
4,ushuaia,100,AR,1578366000,98,-54.81,-68.31,48.31,4.5
5,lebu,8,ET,1578366000,95,8.96,38.73,51.69,1.23
6,faanui,100,PF,1578366000,79,-16.48,-151.75,82.20,16.62
7,mataura,96,NZ,1578366000,88,-46.19,168.86,55.78,8.39
8,vaini,19,IN,1578366000,87,15.34,74.49,68.65,7.96
9,coquimbo,0,CL,1578366000,88,-29.95,-71.34,67.50,1.57
10,upernavik,100,GL,1578366000,97,72.79,-56.15,-6.34,7.54
11,hasaki,99,JP,1578366000,70,35.73,140.83,51.84,17.67
12,bundaberg,44,AU,1578366000,55,-24.87,152.35,85.41,9.82
13,rikitea,0,PF,1578366000,77,-23.12,-134.97,77.13,13.06
14,naze,100,NG,1578366000,82,5.43,7.07,73.51,0.85
15,karabash,83,RU,1578366000,95,55.49,60.21,10.98,0.4
16,albany,99,US,1578366000,90,42.65,-73.75,30.69,6.98
17,tapes,17,BR,1578366000,93,-30.67,-51.40,68.29,3.8
18,anloga,8,GH,1578366000,62,5.79,0.90,78.67,5.64
19,vardo,31,US,1578366000,68,39.62,-77.74,35.53,6.44
20,skibbereen,100,IE,1578366000,84,51.55,-9.27,50.81,22.44
21,margate,100,AU,1578366000,81,-43.03,147.26,66.29,15.99
22,esperance,0,AU,1578366000,47,-33.86,121.89,82.74,4.63
23,tiksi,100,RU,1578366000,87,71.64,128.87,-1.98,17.58
24,hobart,100,AU,1578366000,81,-42.88,147.33,66.16,15.99
25,hilo,25,US,1578366000,78,19.71,-155.08,69.80,12.1
26,yellowknife,90,CA,1578366000,96,62.45,-114.38,-21.48,7.43
27,pisco,34,PE,1578366000,86,-13.71,-76.20,68.45,0.85
28,georgetown,9,GY,1578366000,73,6.80,-58.16,79.14,13.94
29,barrow,0,AR,1578366000,73,-38.31,-60.23,56.39,5.5
30,victoria,68,BN,1578366000,77,5.28,115.24,80.28,5.61
31,rosarito,4,CO,1578366000,87,4.91,-75.23,69.66,4.81
32,srandakan,100,ID,1578366000,68,-7.94,110.25,84.04,9.01
33,padilla,1,CO,1578366000,93,3.23,-76.31,74.75,1.74
34,hermanus,95,ZA,1578366000,78,-34.42,19.24,65.32,21.47
35,lasa,97,CY,1578366000,86,34.92,32.53,55.98,16.35
36,lorengau,52,PG,1578366000,74,-2.02,147.27,84.72,10.18
37,bambanglipuro,100,ID,1578366000,68,-7.95,110.28,84.04,9.01
38,kamaishi,86,JP,1578366000,35,39.28,141.86,37.99,3.31
39,linxi,98,CN,1578366000,66,23.65,116.70,72.54,2.06
40,lata,100,IN,1578366000,94,30.78,78.62,18.61,2.21
41,mahebourg,1,MU,1578366000,79,-20.41,57.70,78.80,2.21
42,bethel,0,US,1578366000,92,60.79,-161.76,-18.47,11.34
43,hithadhoo,100,MV,1578366000,77,-0.60,73.08,83.50,13.87
44,butaritari,100,KI,1578366000,76,3.07,172.79,85.15,15.59
45,perth,0,AU,1578366000,25,-31.95,115.86,87.57,6.96
46,baykit,99,RU,1578366000,96,61.68,96.39,5.20,3.38
47,namibe,90,AO,1578366000,82,-15.19,12.15,71.53,5.73
48,sitka,0,US,1578366000,31,37.17,-99.65,42.15,9.6
49,souillac,100,FR,1578366000,93,45.60,-0.60,46.53,7.65
50,fethiye,100,TR,1578366000,68,36.62,29.12,53.82,6.85
51,atuona,0,PF,1578366000,71,-9.80,-139.03,80.76,11.77
52,tanete,61,ID,1578366000,51,-3.94,119.78,91.74,10.22
53,mbandaka,85,CD,1578366000,60,0.05,18.26,74.61,1.88
54,avarua,49,CK,1578366000,71,-21.21,-159.78,82.54,5.28
55,leningradskiy,0,RU,1578366000,79,69.38,178.42,-9.99,11.25
56,ahipara,100,NZ,1578366000,67,-35.17,173.16,61.90,21.79
57,srednekolymsk,16,RU,1578366000,100,67.46,153.71,-22.49,1.83
58,cabedelo,0,BR,1578366000,88,-6.97,-34.84,78.60,4.23
59,kahului,0,US,1578366000,73,20.89,-156.47,76.41,23.98
60,awjilah,5,LY,1578366000,72,29.14,21.30,46.29,11.77
61,tuktoyaktuk,15,CA,1578366000,98,69.44,-133.03,-22.23,8.5
62,cherskiy,0,RU,1578366000,73,68.75,161.30,-17.46,5.53
63,ylivieska,98,FI,1578366000,96,64.07,24.53,35.19,10.07
64,narasannapeta,0,IN,1578366000,67,18.42,84.04,69.64,3.33
65,brownwood,33,US,1578366000,56,31.71,-98.99,50.47,10.36
66,kalakamati,100,BW,1578366000,46,-20.59,27.31,68.92,6.49
67,kapuskasing,67,CA,1578366000,96,49.42,-82.43,3.31,5.23
68,bluff,100,AU,1578366000,42,-23.58,149.07,89.49,13.58
69,anadyr,0,RU,1578366000,79,64.73,177.51,-16.44,4.0
70,xique-xique,100,BR,1578366000,92,-10.82,-42.73,70.48,2.77
71,saint-augustin,79,CA,1578366000,97,45.63,-73.98,20.43,4.12
72,bima,100,ID,1578366000,66,-8.45,118.73,84.96,3.91
73,nikolskoye,100,RU,1578366000,96,59.70,30.79,34.88,6.38
74,meulaboh,31,ID,1578366000,77,4.14,96.13,79.93,7.43
75,sarangani,100,PH,1578366000,80,5.40,125.46,80.92,17.67
76,hobyo,100,SO,1578366000,77,5.35,48.53,79.18,16.42
77,sharanga,85,RU,1578366000,97,57.18,46.54,15.66,2.89
78,carnarvon,100,ZA,1578366000,65,-30.97,22.13,66.13,14.7
79,kitimat,70,CA,1578366000,86,54.02,-128.69,22.80,3.94
80,tessalit,54,ML,1578366000,21,20.20,1.01,53.47,13.13
81,khatanga,90,RU,1578366000,90,71.98,102.47,2.66,12.57
82,saskylakh,81,RU,1578366000,94,71.97,114.09,-1.08,8.77
83,faya,0,SA,1578366000,64,18.39,42.45,55.99,5.08
84,chuy,67,UY,1578366000,79,-33.69,-53.46,66.42,4.34
85,zhangjiakou,100,CN,1578366000,57,40.77,114.88,15.58,8.84
86,kavieng,43,PG,1578366000,66,-2.57,150.80,85.46,3.67
87,longyearbyen,47,NO,1578366000,80,78.22,15.63,9.57,9.24
88,alpena,11,US,1578366000,81,45.06,-83.43,26.42,7.49
89,port-gentil,43,GA,1578366000,79,-0.72,8.78,82.45,10.78
90,pakokku,0,MM,1578366000,63,21.33,95.09,67.80,8.39
91,elko,58,US,1578366000,67,40.83,-115.76,35.44,2.64
92,codrington,9,AU,1578366000,30,-28.95,153.24,94.46,6.85
93,provideniya,98,RU,1578366000,94,64.42,-173.23,-10.46,1.52
94,airai,78,TL,1578366000,46,-8.93,125.41,84.11,4.59
95,eldorado,1,BR,1578366000,98,-24.52,-48.11,71.42,1.7
96,padang,100,ID,1578366000,60,-0.92,100.36,81.39,2.66
97,ordzhonikidze,100,UA,1578366000,92,44.96,35.36,41.76,19.89
98,owando,61,CG,1578366000,52,-0.49,15.91,72.75,2.08
99,pevek,0,RU,1578366000,68,69.70,170.27,-9.62,5.37
100,valday,99,RU,1578366000,94,57.98,33.25,29.44,4.99
101,stow,91,US,1578366000,73,41.16,-81.44,33.66,7.85
102,bonthe,93,SL,1578366000,78,7.53,-12.50,75.67,5.91
103,kapaa,28,US,1578366000,77,22.08,-159.32,76.12,10.85
104,nara,100,JP,1578366000,65,34.68,135.80,43.03,3.09
105,dikson,100,RU,1578366000,96,73.51,80.55,9.03,6.53
106,raudeberg,100,NO,1578366000,81,61.99,5.14,45.16,23.2
107,kinsale,100,IE,1578366000,83,51.71,-8.52,50.74,23.4
108,saint-philippe,68,CA,1578366000,95,45.36,-73.48,20.21,3.27
109,qaanaaq,3,GL,1578366000,77,77.48,-69.36,-18.58,9.93
110,kirakira,80,SB,1578366000,71,-10.46,161.92,85.32,10.11
111,klaksvik,67,FO,1578366000,73,62.23,-6.59,44.87,29.77
112,alofi,0,NU,1578366000,78,-19.06,-169.92,85.60,11.41
113,abha,0,SA,1578366000,80,18.22,42.50,66.56,1.21
114,honningsvag,100,NO,1578366000,72,70.98,25.97,35.67,18.03
115,mwinilunga,100,ZM,1578366000,97,-11.73,24.43,62.51,5.93
116,narsaq,0,GL,1578366000,51,60.91,-46.05,-5.22,5.26
117,thompson,100,CA,1578366000,94,55.74,-97.86,-6.02,8.72
118,kokopo,44,PG,1578366000,68,-4.34,152.27,84.65,2.44
119,kupiskis,100,LT,1578366000,95,55.83,24.97,33.46,10.58
120,rocha,34,UY,1578366000,68,-34.48,-54.34,64.09,7.56
121,ust-ordynskiy,87,RU,1578366000,76,52.80,104.75,18.45,2.82
122,sirsa,100,IN,1578366000,79,29.54,75.04,56.48,11.48
123,castro,100,CL,1578366000,98,-42.48,-73.76,53.06,7.31
124,torbay,100,CA,1578366000,73,47.66,-52.73,27.66,8.19
125,poum,0,MK,1578366000,55,41.28,20.71,22.15,4.68
126,siavonga,100,ZW,1578366000,92,-16.54,28.71,72.34,5.01
127,quelimane,72,MZ,1578366000,88,-17.88,36.89,79.09,5.21
128,saldanha,44,PT,1578366000,79,41.42,-6.55,35.80,3.51
129,farmington,0,US,1578366000,66,36.73,-108.21,30.96,6.08
130,pangody,0,RU,1578366000,92,65.85,74.49,0.39,13.33
131,maniitsoq,100,GL,1578366000,88,65.42,-52.90,-0.11,8.46
132,nanakuli,11,US,1578366000,71,21.39,-158.15,76.89,16.17
133,nyurba,96,RU,1578366000,91,63.29,118.35,16.36,8.19
134,saint-joseph,0,FR,1578366000,67,43.56,6.97,50.72,4.68
135,bajil,0,ES,1578366000,65,38.23,-2.07,35.96,2.1
136,geraldton,0,CA,1578366000,87,49.72,-86.95,11.17,6.51
137,polunochnoye,0,RU,1578366000,89,60.87,60.43,4.19,4.34
138,bubaque,41,GW,1578366000,40,11.28,-15.83,76.23,15.48
139,lavrentiya,92,RU,1578366000,94,65.58,-170.99,-9.65,2.37
140,broome,0,GB,1578366000,92,52.47,1.45,40.68,10.18
141,bonavista,96,CA,1578366000,79,48.65,-53.11,24.21,9.75
142,pangnirtung,100,CA,1578366000,88,66.15,-65.72,-28.53,5.12
143,samarai,100,PG,1578366000,75,-10.62,150.67,84.34,7.67
144,bilma,15,NE,1578366000,33,18.69,12.92,50.25,13.0
145,fortuna,0,US,1578366000,88,40.60,-124.16,41.97,1.9
146,lugazi,90,UG,1578366000,94,0.37,32.94,68.88,0.89
147,kempele,95,FI,1578366000,94,64.91,25.51,31.98,9.01
148,deputatskiy,0,RU,1578366000,77,69.30,139.90,-18.08,1.43
149,paciran,92,ID,1578366000,68,-6.90,112.33,86.86,10.25
150,artsyz,34,UA,1578366000,76,46.00,29.43,28.04,11.79
151,antibes,0,FR,1578366000,67,43.58,7.11,50.72,4.68
152,liverpool,67,GB,1578366000,79,53.41,-2.98,44.76,10.83
153,preobrazheniye,100,RU,1578366000,78,42.90,133.91,27.59,5.32
154,katsuura,98,JP,1578366000,75,33.93,134.50,49.33,4.97
155,juba,100,EE,1578366000,96,57.82,26.93,35.69,8.52
156,bulolo,86,PG,1578366000,61,-7.20,146.64,83.97,3.36
157,rundu,100,NA,1578366000,88,-17.91,19.77,68.99,6.96
158,solnechnyy,0,RU,1578366000,81,50.72,136.64,9.90,3.15
159,yinchuan,100,CN,1578366000,61,38.48,106.21,22.71,2.01
160,trujillo,26,VE,1578366000,92,9.37,-70.44,68.18,2.77
161,grindavik,100,IS,1578366000,85,63.84,-22.43,36.00,30.2
162,jinji,40,CN,1578366000,62,22.16,112.49,78.06,4.29
163,ures,0,MX,1578366000,45,30.73,-112.95,69.66,21.09
164,honiara,100,SB,1578366000,66,-9.43,159.96,90.10,7.05
165,jamestown,0,AU,1578366000,34,-33.21,138.60,83.44,2.33
166,kukuna,100,SL,1578366000,89,8.64,-12.57,65.79,2.86
167,anta,100,PE,1578366000,80,-13.47,-72.15,71.35,3.44
168,bilibino,0,RU,1578366000,93,68.06,166.44,-19.48,2.71
169,saint-pierre,84,FR,1578366000,94,48.95,4.24,40.82,9.15
170,chicama,5,PE,1578366000,80,-7.84,-79.15,69.89,5.23
171,tongliao,0,CN,1578366000,85,43.61,122.27,12.06,9.19
172,atar,23,MR,1578366000,14,20.52,-13.05,49.48,8.1
173,lagoa,0,PT,1578366000,70,37.14,-8.45,54.45,12.15
174,dillon,100,US,1578366000,84,45.22,-112.64,26.13,13.29
175,aleksandrovka,100,RU,1578366000,96,54.24,50.04,20.23,4.54
176,beroroha,0,MG,1578366000,86,-21.68,45.17,73.45,2.37
177,aklavik,0,CA,1578366000,95,68.22,-135.01,-29.65,5.7
178,emba,97,CY,1578366000,86,34.81,32.42,55.92,16.35
179,saryg-sep,0,RU,1578366000,96,51.49,95.55,-10.35,0.43
180,kulhudhuffushi,46,MV,1578366000,75,6.62,73.07,82.72,12.82
181,balkanabat,65,TM,1578366000,71,39.51,54.36,39.69,7.67
182,tabuk,3,PH,1578366000,74,17.41,121.44,78.10,6.82
183,kodiak,9,US,1578366000,75,39.95,-94.76,35.42,14.45
184,kaitangata,0,NZ,1578366000,75,-46.28,169.85,56.80,20.09
185,angoche,97,MZ,1578366000,92,-16.23,39.91,76.78,4.47
186,sterling,24,US,1578366000,62,39.00,-77.40,37.31,5.3
187,ottumwa,88,US,1578366000,61,41.02,-92.41,34.81,5.66
188,luganville,85,VU,1578366000,74,-15.51,167.18,84.90,8.7
189,portalegre,2,PT,1578366000,83,39.29,-7.43,40.82,3.47
190,luderitz,89,NA,1578366000,85,-26.65,15.16,63.32,23.29
191,mecca,0,SA,1578366000,42,21.43,39.83,59.34,1.7
192,visby,96,SE,1578366000,91,57.64,18.30,42.21,9.78
193,christchurch,39,NZ,1578366000,49,-43.53,172.64,61.36,17.74
194,mega,0,ET,1578366000,74,4.06,38.32,64.27,4.85
195,miranda,54,BR,1578366000,87,-20.24,-56.38,77.41,4.18
196,severo-kurilsk,100,RU,1578366000,77,50.68,156.12,23.70,15.28
197,taoudenni,0,ML,1578366000,22,22.68,-3.98,49.03,5.88
198,nouakchott,83,MR,1578366000,28,18.08,-15.98,63.39,18.21
199,okhotsk,0,RU,1578366000,78,59.36,143.24,-4.36,13.04
200,yashkul,100,RU,1578366000,72,46.17,45.34,31.12,8.97
201,tiznit,0,MA,1578366000,33,29.70,-9.73,48.79,4.03
202,chateauroux,98,FR,1578366000,92,43.72,0.65,44.91,5.1
203,ilulissat,100,GL,1578366000,68,69.22,-51.10,-5.53,6.11
204,college,41,US,1578366000,97,64.86,-147.80,-25.38,2.17
205,thinadhoo,100,MV,1578366000,75,0.53,72.93,83.46,16.11
206,poladpur,0,IN,1578366000,58,17.98,73.47,75.04,2.24
207,kastamonu,100,TR,1578366000,92,41.38,33.78,31.98,3.44
208,shache,100,CN,1578366000,50,38.42,77.24,27.32,3.24
209,kaduqli,100,SD,1578366000,16,11.01,29.72,67.01,15.75
210,bay-khaak,0,RU,1578366000,76,51.16,94.47,1.85,6.93
211,buraydah,2,SA,1578366000,43,26.33,43.97,50.43,8.16
212,fayaoue,10,NC,1578366000,78,-20.65,166.53,77.74,13.87
213,bolgatanga,3,GH,1578366000,27,10.79,-0.85,69.78,10.04
214,tura,100,RU,1578366000,94,64.27,100.22,10.29,6.08
215,vestmannaeyjar,100,IS,1578366000,92,63.44,-20.27,36.57,40.89
216,chokurdakh,0,RU,1578366000,96,70.62,147.90,-22.70,2.95
217,tvoroyri,100,FO,1578366000,76,61.56,-6.81,45.43,31.94
218,camacha,9,PT,1578366000,79,33.08,-16.33,62.49,18.14
219,pirapora,100,BR,1578366000,95,-17.35,-44.95,70.30,1.39
220,tasiilaq,100,GL,1578366000,94,65.61,-37.64,21.42,31.43
221,nsoko,3,ZA,1578366000,98,-27.07,31.93,71.37,2.77
222,sakaraha,0,MG,1578366000,80,-22.91,44.53,72.16,2.8
223,laguna,100,BZ,1578366000,87,16.17,-88.94,69.13,0.87
224,tera,97,CY,1578366000,86,34.97,32.42,55.99,16.35
225,gamba,56,CN,1578366000,32,28.28,88.52,15.10,0.65
226,kruisfontein,100,ZA,1578366000,91,-34.00,24.73,64.42,3.33
227,avera,67,US,1578366000,77,33.19,-82.53,51.01,6.24
228,ballina,100,IE,1578366000,85,54.11,-9.15,51.44,20.76
229,jelgava,100,LV,1578366000,94,56.65,23.73,37.02,10.78
230,caravelas,56,BR,1578366000,93,-17.73,-39.27,73.08,7.56
231,aksu,86,KZ,1578366000,89,52.04,76.93,7.92,3.44
232,kuching,100,MY,1578366000,84,1.56,110.34,81.61,3.33
233,litovko,0,RU,1578366000,81,49.24,135.18,7.23,3.56
234,arkhangelsk,95,RU,1578366000,94,64.54,40.54,26.17,7.56
235,eregli,83,TR,1578366000,88,37.51,34.05,36.16,5.41
236,ust-kishert,22,RU,1578366000,90,57.36,57.24,3.49,1.88
237,berlevag,100,NO,1578366000,76,70.86,29.09,31.05,14.72
238,marawi,100,PH,1578366000,54,8.00,124.29,83.44,3.71
239,zheleznodorozhnyy,98,RU,1578366000,87,55.75,38.00,27.64,7.74
240,sindor,100,RU,1578366000,93,62.87,51.90,9.66,7.45
241,luwuk,100,ID,1578366000,72,-0.95,122.79,82.17,6.51
242,nome,91,US,1578366000,77,30.04,-94.42,65.35,4.81
243,gunjur,99,GM,1578366000,50,13.18,-16.76,73.06,21.09
244,ambon,100,FR,1578366000,98,47.55,-2.56,51.37,8.08
245,tahe,0,CN,1578366000,85,52.34,124.71,1.99,2.37
246,raikot,100,IN,1578366000,96,30.65,75.60,52.92,5.64
247,correntina,96,BR,1578366000,96,-13.34,-44.63,69.08,2.84
248,palmas,100,BR,1578366000,95,-10.18,-48.33,73.02,3.18
249,hajipur,63,IN,1578366000,53,25.69,85.21,60.48,1.63
250,mirnyy,95,RU,1578366000,92,56.57,36.46,24.96,6.76
251,pundaguitan,99,PH,1578366000,84,6.37,126.17,79.43,8.55
252,misratah,100,LY,1578366000,61,32.38,15.09,55.04,14.72
253,olkhovatka,100,RU,1578366000,93,50.28,39.30,23.76,8.43
254,kutum,29,SD,1578366000,30,14.20,24.66,57.04,4.7
255,maceio,0,BR,1578366000,81,-9.67,-35.74,78.62,12.88
256,buwenge,90,UG,1578366000,94,0.65,33.17,63.01,0.89
257,haikou,0,CN,1578366000,69,20.04,110.34,77.85,4.81
258,xuddur,82,SO,1578366000,82,4.12,43.89,73.72,15.1
259,sayyan,0,YE,1578366000,67,15.17,44.32,49.03,0.87
260,barillas,32,ES,1578366000,77,41.97,-1.66,39.76,10.27
261,mozarlandia,100,BR,1578366000,97,-14.74,-50.57,70.75,5.68
262,karratha,52,AU,1578366000,71,-20.74,116.85,86.74,7.14
263,itaituba,100,BR,1578366000,97,-4.26,-55.99,73.63,2.48
264,iqaluit,100,CA,1578366000,84,63.75,-68.52,-16.78,7.2
265,licheng,97,CN,1578366000,72,24.50,110.40,70.03,1.77
266,olga,0,US,1578366000,15,34.11,-118.17,66.47,3.18
267,ambulu,100,ID,1578366000,80,-8.35,113.61,81.03,9.8
268,kabo,8,CF,1578366000,36,7.69,18.62,68.77,3.02
269,baoro,0,CF,1578366000,33,5.69,15.95,67.21,5.35
270,ancud,100,CL,1578366000,89,-41.87,-73.83,57.00,10.25
271,najran,0,SA,1578366000,91,17.54,44.22,53.26,1.83
272,yokadouma,0,CM,1578366000,50,3.52,15.05,64.74,1.28
273,mayo,49,CA,1578366000,99,63.59,-135.90,-23.39,1.95
274,puri,61,ID,1578366000,71,-7.54,112.45,85.03,8.32
275,carballo,16,ES,1578366000,96,43.21,-8.69,39.27,1.66
276,lompoc,25,US,1578366000,64,34.64,-120.46,63.25,5.66
277,wahpeton,86,US,1578366000,86,46.27,-96.61,25.27,11.59
278,shuyskoye,99,RU,1578366000,95,59.37,41.03,21.34,6.8
279,bourail,100,NC,1578366000,53,-21.57,165.50,82.04,5.08
280,nantucket,0,US,1578366000,75,41.28,-70.10,40.98,23.17
281,covington,100,US,1578366000,79,35.56,-89.65,50.77,5.88
282,sambava,46,MG,1578366000,94,-14.27,50.17,73.51,1.88
283,yakeshi,78,CN,1578366000,96,49.28,120.73,-0.44,2.01
284,sonepur,63,IN,1578366000,53,25.70,85.16,60.48,1.63
285,zhigansk,100,RU,1578366000,94,66.77,123.37,0.01,16.78
286,ostrovnoy,52,RU,1578366000,96,68.05,39.51,9.54,6.13
287,cidreira,43,BR,1578366000,82,-30.17,-50.22,76.21,7.85
288,fukuma,88,JP,1578366000,77,33.77,130.47,61.99,17.29
289,pickerington,90,US,1578366000,79,39.88,-82.75,33.76,6.08
290,magadan,11,RU,1578366000,71,59.56,150.80,5.36,8.37
291,sakaiminato,100,JP,1578366000,91,35.55,133.23,47.73,6.93
292,ariquemes,100,BR,1578366000,97,-9.91,-63.03,75.20,2.39
293,ericeira,0,PT,1578366000,73,38.96,-9.42,53.19,9.44
294,trincomalee,25,LK,1578366000,82,8.58,81.23,79.25,5.99
295,kaveripattinam,33,IN,1578366000,85,12.42,78.22,68.81,5.1
296,qasigiannguit,100,GL,1578366000,68,68.82,-51.19,-5.53,6.11
297,buala,67,SB,1578366000,71,-8.15,159.59,84.97,10.16
298,kavaratti,100,IN,1578366000,74,10.57,72.64,80.53,8.93
299,mandera,56,ET,1578366000,66,3.94,41.86,81.43,12.73
300,krasnoye,100,RU,1578366000,70,44.87,39.46,35.87,1.21
301,berdsk,100,RU,1578366000,95,54.76,83.11,21.76,8.3
302,peniche,0,PT,1578366000,73,39.36,-9.38,54.41,8.34
303,murupara,30,NZ,1578366000,32,-38.46,176.71,71.53,7.61
304,moville,6,US,1578366000,92,42.49,-96.07,29.79,8.59
305,nuuk,100,GL,1578366000,92,64.17,-51.74,5.56,21.68
306,ratnagiri,0,IN,1578366000,66,16.98,73.30,75.51,3.51
307,tateyama,100,JP,1578366000,89,36.66,137.31,39.02,4.9
308,mutsu,61,JP,1578366000,63,41.29,141.20,35.11,2.98
309,adrar,19,DZ,1578366000,43,27.87,-0.29,46.31,14.72
310,erenhot,0,CN,1578366000,84,43.65,111.97,12.09,1.66
311,goderich,0,CA,1578366000,76,43.74,-81.71,30.92,13.6
312,simdega,0,IN,1578366000,45,22.61,84.51,62.38,2.13
313,chumikan,0,RU,1578366000,70,54.72,135.31,17.44,13.31
314,denpasar,95,ID,1578366000,68,-8.65,115.22,84.49,5.46
315,ahuimanu,11,US,1578366000,71,21.44,-157.84,76.89,16.17
316,axim,32,GH,1578366000,78,4.87,-2.24,73.96,2.19
317,karakol,100,KG,1578366000,53,42.49,78.39,18.01,4.21
318,balaipungut,66,ID,1578366000,60,1.11,101.31,86.20,3.2
319,kupang,11,ID,1578366000,80,-10.16,123.60,83.52,14.29
320,bealanana,97,MG,1578366000,95,-14.54,48.75,64.60,0.81
321,plaridel,98,PH,1578366000,82,13.96,122.02,79.79,19.71
322,teya,0,MX,1578366000,79,21.05,-89.07,69.62,4.7
323,freeport,71,BS,1578366000,57,26.54,-78.70,69.15,8.5
324,maraa,87,BR,1578366000,77,-1.83,-65.37,81.05,0.63
325,montlucon,100,FR,1578366000,86,46.33,2.60,42.06,8.14
326,skjervoy,100,NO,1578366000,76,70.03,20.97,39.72,19.26
327,skibotn,100,NO,1578366000,88,69.39,20.27,35.08,19.73
328,pangai,57,TO,1578366000,78,-19.80,-174.35,83.88,10.02
329,daru,98,PG,1578366000,57,-9.07,143.21,92.30,2.1
330,garowe,58,SO,1578366000,73,8.41,48.48,75.02,9.75
331,roth,15,DE,1578366000,82,49.25,11.09,31.57,5.37
332,taicheng,20,CN,1578366000,75,22.25,112.80,73.18,6.58
333,at-bashi,100,KG,1578366000,90,41.17,75.81,-2.06,1.77
334,tupik,0,RU,1578366000,90,54.43,119.94,-3.98,2.33
335,sola,75,TZ,1578366000,90,-3.17,33.80,63.03,5.32
336,phaltan,23,IN,1578366000,72,17.99,74.43,71.89,5.59
337,mandurah,0,AU,1578366000,59,-32.55,115.70,75.83,5.75
338,russellville,1,US,1578366000,81,35.28,-93.13,42.93,2.8
339,nyaunglebin,0,MM,1578366000,57,17.95,96.73,76.03,5.61
340,jumla,100,NP,1578366000,96,29.28,82.18,31.80,2.08
341,catuday,0,PH,1578366000,73,16.29,119.81,79.32,14.52
342,valdivia,100,CL,1578366000,84,-39.81,-73.25,58.50,3.6
343,talnakh,98,RU,1578366000,95,69.49,88.39,12.76,8.12
344,lamar,0,US,1578366000,37,38.09,-102.62,39.43,2.33
345,kununurra,93,AU,1578366000,50,-15.77,128.74,90.50,12.59
346,rajapur,0,BD,1578366000,49,22.57,90.14,64.63,6.42
347,leshukonskoye,100,RU,1578366000,95,64.90,45.76,18.07,6.49
348,corinto,1,CO,1578366000,93,3.17,-76.26,74.75,1.74
349,kamenka,0,MD,1578366000,91,48.03,28.70,24.44,2.59
350,rockland,100,CA,1578366000,91,45.55,-75.29,23.95,7.7
351,garissa,56,KE,1578366000,86,-0.46,39.64,76.51,5.17
352,champerico,5,MX,1578366000,98,16.38,-93.60,66.69,2.66
353,okha,23,RU,1578366000,89,53.59,142.95,10.90,9.84
354,klyuchi,99,RU,1578366000,87,52.25,79.17,8.15,2.89
355,norwich,0,GB,1578366000,92,52.63,1.29,40.62,10.18
356,kieta,99,PG,1578366000,69,-6.22,155.63,85.96,6.49
357,itarema,35,BR,1578366000,91,-2.92,-39.92,76.39,3.09
358,keetmanshoop,49,NA,1578366000,62,-26.57,18.15,76.41,5.5
359,wilmington,0,US,1578366000,64,39.75,-75.55,37.18,7.14
360,labuhan,100,ID,1578366000,61,-2.54,115.51,87.78,2.42
361,sur,21,OM,1578366000,77,22.57,59.53,69.89,12.77
362,nogliki,40,RU,1578366000,85,51.80,143.14,14.45,11.14
363,agogo,0,GH,1578366000,58,6.80,-1.08,70.00,3.11
364,porgera,100,PG,1578366000,94,-5.46,143.15,62.28,1.81
365,mehamn,100,NO,1578366000,88,71.03,27.85,28.62,15.46
366,mandalgovi,0,MN,1578366000,74,45.76,106.27,7.84,3.24
367,huanren,100,CN,1578366000,89,41.26,125.37,27.30,5.3
368,luorong,87,CN,1578366000,79,24.41,109.60,69.91,3.62
369,nivala,100,FI,1578366000,97,63.93,24.96,35.67,8.59
370,xining,8,CN,1578366000,59,36.62,101.77,22.53,5.17
371,caraballeda,25,VE,1578366000,87,10.61,-66.85,70.34,0.74
372,yarada,74,IN,1578366000,69,17.65,83.27,75.13,12.33
373,nishihara,98,JP,1578366000,44,35.74,139.53,46.62,6.58
374,zemio,35,CF,1578366000,43,5.02,25.13,65.68,3.02
375,lincoln,33,GB,1578366000,92,53.23,-0.54,40.15,8.75
376,masuguru,99,MZ,1578366000,97,-11.38,38.46,73.33,4.03
377,izmalkovo,20,RU,1578366000,92,52.69,37.97,21.40,2.3
378,inta,96,RU,1578366000,89,66.04,60.13,6.69,20.58
379,luau,100,CD,1578366000,98,-10.70,22.23,66.22,2.48
380,langham,0,CA,1578366000,89,52.36,-106.96,3.61,7.43
381,buin,0,CL,1578366000,45,-33.73,-70.74,70.74,3.47
382,pringsewu,99,ID,1578366000,80,-5.36,104.98,81.86,0.81
383,leirvik,80,NO,1578366000,93,59.78,5.50,44.24,9.08
384,sibolga,87,ID,1578366000,57,1.74,98.78,85.93,1.14
385,hirara,87,JP,1578366000,73,24.80,125.28,72.84,15.01
386,moron,0,HT,1578366000,69,18.56,-74.26,75.99,7.52
387,polson,100,US,1578366000,85,47.69,-114.16,32.76,8.95
388,talakan,72,RU,1578366000,81,50.29,130.28,9.86,0.69
389,dudinka,100,RU,1578366000,94,69.41,86.18,10.40,14.38
390,telma,0,RU,1578366000,79,52.70,103.72,20.34,2.33
391,sainte-marie,100,CA,1578366000,96,46.45,-71.03,19.44,3.62
392,brae,22,GB,1578366000,68,60.40,-1.35,46.92,26.46
393,muscat,96,OM,1578366000,62,23.60,58.55,73.26,13.94
394,yenagoa,100,NG,1578366000,76,4.92,6.26,75.63,1.16
395,butembo,100,CD,1578366000,83,0.12,29.29,60.42,3.06
396,ossora,100,RU,1578366000,95,59.24,163.07,11.52,5.84
397,paita,0,PE,1578366000,74,-5.09,-81.11,74.97,8.05
398,touros,95,BR,1578366000,80,-5.20,-35.46,81.32,13.89
399,nanortalik,33,GL,1578366000,67,60.14,-45.24,16.02,45.75
400,sobolevo,94,RU,1578366000,96,54.43,31.90,25.68,5.7
401,macusani,100,PE,1578366000,94,-14.07,-70.43,34.86,7.36
402,clinton,0,US,1578366000,68,41.28,-72.53,35.55,7.99
403,redmond,100,US,1578366000,96,47.67,-122.12,48.83,10.47
404,wahiawa,11,US,1578366000,71,21.50,-158.02,76.89,16.17
405,qostanay,96,KZ,1578366000,96,53.17,63.58,13.84,2.71
406,ixtapa,99,MX,1578366000,52,20.71,-105.21,69.22,2.68
407,conde,0,BR,1578366000,80,-11.81,-37.61,80.40,16.26
408,zyryanka,0,RU,1578366000,86,65.73,150.89,-16.31,5.91
409,mantua,0,IT,1578366000,85,45.16,10.79,35.89,3.91
410,tuatapere,100,NZ,1578366000,92,-46.13,167.69,56.01,6.02
411,bodrum,100,TR,1578366000,81,37.04,27.43,48.27,11.12
412,kilindoni,40,TZ,1578366000,79,-7.91,39.67,82.87,12.44
413,pregradnaya,100,RU,1578366000,48,43.95,41.19,33.03,3.04
414,vila,0,IT,1578366000,90,45.18,8.40,34.43,1.16
415,vanimo,73,PG,1578366000,75,-2.67,141.30,83.79,10.71
416,portland,67,US,1578366000,72,43.66,-70.25,36.55,24.23
417,jhalida,0,IN,1578366000,47,23.36,85.98,61.03,3.91
418,zhangye,0,CN,1578366000,32,38.94,100.46,29.35,1.63
419,pavlovsk,100,RU,1578366000,95,53.31,82.99,13.78,3.15
420,carnaiba,33,BR,1578366000,76,-8.70,-37.67,74.77,6.71
421,isoka,100,ZM,1578366000,95,-10.15,32.64,63.01,1.14
422,cururupu,100,BR,1578366000,95,-1.82,-44.87,74.46,1.36
423,songjianghe,100,CN,1578366000,87,42.18,127.48,27.28,3.2
424,uruzgan,0,AF,1578366000,78,32.93,66.63,14.38,7.58
425,nagyszenas,53,HU,1578366000,65,46.68,20.67,29.05,0.89
426,bowen,100,AU,1578366000,75,-20.01,148.25,84.06,14.5
427,kodino,95,RU,1578366000,95,63.72,39.64,24.87,7.63
428,juneau,100,US,1578366000,97,58.30,-134.42,28.98,8.57
429,bani,4,YE,1578366000,75,16.02,42.93,76.73,4.12
430,badulla,91,LK,1578366000,90,6.99,81.06,68.04,5.48
431,dunn,25,US,1578366000,59,35.31,-78.61,44.35,2.15
432,tomatlan,68,MX,1578366000,63,19.93,-105.25,63.86,3.69
433,egvekinot,78,RU,1578366000,72,66.32,-179.17,-12.78,4.45
